todofuken,city,name,tel,e-mail,address,lat,lon,url
長野県,佐久市,佐久市災害ボランティアセンター,0267-64-2426,info@sakusi-shakyo.or.jp,長野県佐久市取出町183 社会福祉法人佐久市社会福祉協議会内,36.248890,138.476944,https://www.facebook.com/sakuvc/
長野県,佐久穂町,南佐久郡・佐久穂町災害ボランティアセンター,0267-86-4273,N/A,長野県南佐久郡佐久穂町大字高野町翆町３５１　佐久穂町社会福祉協議会内,36.162884,138.478455,https://www.town.sakuho.nagano.jp/disaster/bosai_1733.html
長野県,小布施町,小布施町災害ボランティアセンター,026-242-6665,o-shakyo@stvnet.home.ne.jp,長野県上高井郡小布施町大字小布施860-イ 千年樹の里 健康福祉センター内,36.690306,138.317077,http://obuse-shakyo.org/modules/cont/archives/5107
長野県,上田市,上田市災害救援ボランティアセンター,0268-27-2025,ueda.shakyo@ueda-shakyo.or.jp,上田市中央三丁目5-1 社会福祉法人上田市社会福祉協議会 上田市ふれあい福祉センター,36.401943,138.249176,http://www.ueda-shakyo.com/modules/bulletin/index.php?page=article&storyid=205
長野県,須坂市,須坂市災害ボランティアセンター,026-246-2276,tasukeai@suzaka-shakyo.jp,長野県須坂市大字塩川168-1,36.660023,138.290512,https://blog.suzaka.jp/shakyo?cat=1567
長野県,千曲市,千曲市社協災害ボランティアセンター,080‐5072‐9750,fukushi@chikuma-shakyo.jp,千曲市大字杭瀬下84,36.533894,138.119972,http://www.chikuma-shakyo.jp/contents/info/detail/?id=239
長野県,中野市,中野市災害ボランティアセンター,0269-26-3111,N/A,長野県中野市大字西条 70 番地 1,36.733044,138.359596,https://www.nakanoshi.net/info/2019/10/entry60.html
長野県,長野市,長野市南部災害ボランティアセンター,080-5072-9607,vcenter@nsyakyo.or.jp,長野県長野市篠ノ井東福寺320　南長野運動公園（南西）屋内ゲートボール場,36.579035,138.162631,https://www.csw-naganocity.or.jp/info/single/si-194
長野県,飯山市,飯山市災害ボランティアセンター,090-4945-8342,s.fukusi＠iiyama-catv.ne.jp,飯山市大字野坂田781-4,36.856133,138.376617,https://iiyama-shakyo.or.jp